{
  "_embedded": [
    {
      "code": "AAL",
      "name": "Aalborg",
      "description": "Aalborg (AAL)",
      "coordinates": {
        "latitude": 57.08944,
        "longitude": 9.84889
      },
      "children": [
        {
          "code": "AAL",
          "name": "Aalborg",
          "description": "Aalborg - Aalborg (AAL), Denmark",
          "coordinates": {
            "latitude": 57.09306,
            "longitude": 9.85
          }
        }
      ],
      "fare": {
        "origin": {
          "code": "AMS",
          "name": "Schiphol",
          "description": "Amsterdam - Schiphol (AMS), Netherlands",
          "coordinates": {
            "latitude": 52.30833,
            "longitude": 4.76806
          }
        },
        "departureDate": "2017-01-04",
        "returnDate": "2017-01-07",
        "amount": {
          "currency": "EUR",
          "price": 178.59
        },
        "possibleTravelTime": 4500000
      },
      "parent": {
        "code": "DK",
        "name": "Denmark",
        "description": "Denmark (DK)",
        "coordinates": {
          "latitude": 56,
          "longitude": 10
        },
        "parent": {
          "code": "EUR",
          "name": "Europe",
          "description": "Europe (EUR)",
          "coordinates": {
            "latitude": 51.179,
            "longitude": 11.25
          }
        }
      },
      "popularity": 5,
      "themes": [
        {
          "icon": "&#xe617;",
          "name": "Arts & Culture",
          "category": "ART"
        },
        {
          "icon": "&#xe614;",
          "name": "Food & Drinks",
          "category": "CUL"
        },
        {
          "icon": "&#xe60a;",
          "name": "Romance",
          "category": "ROM"
        }
      ]
    },
    {
      "code": "ABE",
      "name": "Allentown",
      "description": "Allentown (ABE)",
      "coordinates": {
        "latitude": 40.65111,
        "longitude": -75.43556
      },
      "children": [
        {
          "code": "ABE",
          "name": "Allentown Bethlehem",
          "description": "Allentown - Allentown Bethlehem (ABE), USA",
          "coordinates": {
            "latitude": 40.65472,
            "longitude": -75.43833
          }
        }
      ],
      "fare": {
        "origin": {
          "code": "AMS",
          "name": "Schiphol",
          "description": "Amsterdam - Schiphol (AMS), Netherlands",
          "coordinates": {
            "latitude": 52.30833,
            "longitude": 4.76806
          }
        },
        "departureDate": "2016-12-20",
        "returnDate": "2017-01-09",
        "amount": {
          "currency": "EUR",
          "price": 790.75
        },
        "possibleTravelTime": 36060000
      },
      "parent": {
        "code": "US",
        "name": "USA",
        "description": "USA (US)",
        "coordinates": {
          "latitude": 36,
          "longitude": -100
        },
        "parent": {
          "code": "N_AMER",
          "name": "North America",
          "description": "North America (N_AMER)",
          "coordinates": {
            "latitude": 46.316,
            "longitude": -105.46
          }
        }
      },
      "popularity": 5,
      "themes": [
        {
          "icon": "&#xe618;",
          "name": "Architecture",
          "category": "ARC"
        },
        {
          "icon": "&#xe610;",
          "name": "History",
          "category": "HIS"
        },
        {
          "icon": "&#xe613;",
          "name": "Family fun",
          "category": "FAM"
        }
      ]
    },
    {
      "code": "ABJ",
      "name": "Abidjan",
      "description": "Abidjan (ABJ)",
      "coordinates": {
        "latitude": 5.24806,
        "longitude": -3.93028
      },
      "children": [
        {
          "code": "ABJ",
          "name": "F Houphouet Boigny",
          "description": "Abidjan - F Houphouet Boigny (ABJ), Cote D'ivoire",
          "coordinates": {
            "latitude": 5.25639,
            "longitude": -3.92694
          }
        }
      ],
      "fare": {
        "origin": {
          "code": "AMS",
          "name": "Schiphol",
          "description": "Amsterdam - Schiphol (AMS), Netherlands",
          "coordinates": {
            "latitude": 52.30833,
            "longitude": 4.76806
          }
        },
        "departureDate": "2016-12-27",
        "returnDate": "2017-01-09",
        "amount": {
          "currency": "EUR",
          "price": 1081.49
        },
        "possibleTravelTime": 27600000
      },
      "parent": {
        "code": "CI",
        "name": "Cote D'ivoire",
        "description": "Cote D'ivoire (CI)",
        "coordinates": {
          "latitude": 8,
          "longitude": -5
        },
        "parent": {
          "code": "AFRICA",
          "name": "Africa",
          "description": "Africa (AFRICA)",
          "coordinates": {
            "latitude": -4.915,
            "longitude": 25.664
          }
        }
      },
      "popularity": 6,
      "themes": [
        {
          "icon": "&#xe60d;",
          "name": "Music & Nightlife",
          "category": "MUS"
        },
        {
          "icon": "&#xe60e;",
          "name": "Nature",
          "category": "NAT"
        },
        {
          "icon": "&#xe605;",
          "name": "Beach",
          "category": "BEA"
        }
      ]
    },
    {
      "code": "ABQ",
      "name": "Albuquerque",
      "description": "Albuquerque (ABQ)",
      "coordinates": {
        "latitude": 35.04778,
        "longitude": -106.59861
      },
      "children": [
        {
          "code": "ABQ",
          "name": "Albuquerque Intl.",
          "description": "Albuquerque - Albuquerque Intl. (ABQ), USA",
          "coordinates": {
            "latitude": 35.04222,
            "longitude": -106.60528
          }
        }
      ],
      "fare": {
        "origin": {
          "code": "AMS",
          "name": "Schiphol",
          "description": "Amsterdam - Schiphol (AMS), Netherlands",
          "coordinates": {
            "latitude": 52.30833,
            "longitude": 4.76806
          }
        },
        "departureDate": "2017-01-10",
        "returnDate": "2017-01-16",
        "amount": {
          "currency": "EUR",
          "price": 914.86
        },
        "possibleTravelTime": 42480000
      },
      "parent": {
        "code": "US",
        "name": "USA",
        "description": "USA (US)",
        "coordinates": {
          "latitude": 36,
          "longitude": -100
        },
        "parent": {
          "code": "N_AMER",
          "name": "North America",
          "description": "North America (N_AMER)",
          "coordinates": {
            "latitude": 46.316,
            "longitude": -105.46
          }
        }
      },
      "popularity": 6,
      "themes": [
        {
          "icon": "&#xe610;",
          "name": "History",
          "category": "HIS"
        },
        {
          "icon": "&#xe60e;",
          "name": "Nature",
          "category": "NAT"
        },
        {
          "icon": "&#xe613;",
          "name": "Family fun",
          "category": "FAM"
        }
      ]
    },
    {
      "code": "ABV",
      "name": "Abuja",
      "description": "Abuja (ABV)",
      "coordinates": {
        "latitude": 9.16139,
        "longitude": 7.09889
      },
      "children": [
        {
          "code": "ABV",
          "name": "Abuja Intl.",
          "description": "Abuja - Abuja Intl. (ABV), Nigeria",
          "coordinates": {
            "latitude": 9,
            "longitude": 7.26667
          }
        }
      ],
      "fare": {
        "origin": {
          "code": "AMS",
          "name": "Schiphol",
          "description": "Amsterdam - Schiphol (AMS), Netherlands",
          "coordinates": {
            "latitude": 52.30833,
            "longitude": 4.76806
          }
        },
        "departureDate": "2017-01-20",
        "returnDate": "2017-02-01",
        "amount": {
          "currency": "EUR",
          "price": 698.23
        },
        "possibleTravelTime": 26100000
      },
      "parent": {
        "code": "NG",
        "name": "Nigeria",
        "description": "Nigeria (NG)",
        "coordinates": {
          "latitude": 10,
          "longitude": 8
        },
        "parent": {
          "code": "AFRICA",
          "name": "Africa",
          "description": "Africa (AFRICA)",
          "coordinates": {
            "latitude": -4.915,
            "longitude": 25.664
          }
        }
      },
      "popularity": 6,
      "themes": [
        {
          "icon": "&#xe611;",
          "name": "Golf",
          "category": "GOL"
        },
        {
          "icon": "&#xe617;",
          "name": "Arts & Culture",
          "category": "ART"
        },
        {
          "icon": "&#xe60e;",
          "name": "Nature",
          "category": "NAT"
        }
      ]
    },
    {
      "code": "ABY",
      "name": "Albany, GA",
      "description": "Albany, GA (ABY)",
      "coordinates": {
        "latitude": 31.53556,
        "longitude": -84.20167
      },
      "children": [
        {
          "code": "ABY",
          "name": "Dougherty County",
          "description": "Albany, GA - Dougherty County (ABY), USA",
          "coordinates": {
            "latitude": 31.53222,
            "longitude": -84.19611
          }
        }
      ],
      "fare": {
        "origin": {
          "code": "AMS",
          "name": "Schiphol",
          "description": "Amsterdam - Schiphol (AMS), Netherlands",
          "coordinates": {
            "latitude": 52.30833,
            "longitude": 4.76806
          }
        },
        "departureDate": "2016-12-19",
        "returnDate": "2016-12-28",
        "amount": {
          "currency": "EUR",
          "price": 877.75
        },
        "possibleTravelTime": 37140000
      },
      "parent": {
        "code": "US",
        "name": "USA",
        "description": "USA (US)",
        "coordinates": {
          "latitude": 36,
          "longitude": -100
        },
        "parent": {
          "code": "N_AMER",
          "name": "North America",
          "description": "North America (N_AMER)",
          "coordinates": {
            "latitude": 46.316,
            "longitude": -105.46
          }
        }
      },
      "popularity": 6,
      "themes": [
        {
          "icon": "&#xe610;",
          "name": "History",
          "category": "HIS"
        },
        {
          "icon": "&#xe60e;",
          "name": "Nature",
          "category": "NAT"
        },
        {
          "icon": "&#xe613;",
          "name": "Family fun",
          "category": "FAM"
        }
      ]
    },
    {
      "code": "ABZ",
      "name": "Aberdeen",
      "description": "Aberdeen (ABZ)",
      "coordinates": {
        "latitude": 57.2325,
        "longitude": -2.2
      },
      "children": [
        {
          "code": "ABZ",
          "name": "Dyce",
          "description": "Aberdeen - Dyce (ABZ), United Kingdom",
          "coordinates": {
            "latitude": 57.20417,
            "longitude": -2.19806
          }
        }
      ],
      "fare": {
        "origin": {
          "code": "AMS",
          "name": "Schiphol",
          "description": "Amsterdam - Schiphol (AMS), Netherlands",
          "coordinates": {
            "latitude": 52.30833,
            "longitude": 4.76806
          }
        },
        "departureDate": "2017-01-12",
        "returnDate": "2017-01-15",
        "amount": {
          "currency": "EUR",
          "price": 198.56
        },
        "possibleTravelTime": 5400000
      },
      "parent": {
        "code": "GB",
        "name": "United Kingdom",
        "description": "United Kingdom (GB)",
        "coordinates": {
          "latitude": 51.5,
          "longitude": -0.116667
        },
        "parent": {
          "code": "EUR",
          "name": "Europe",
          "description": "Europe (EUR)",
          "coordinates": {
            "latitude": 51.179,
            "longitude": 11.25
          }
        }
      },
      "popularity": 4,
      "themes": [
        {
          "icon": "&#xe611;",
          "name": "Golf",
          "category": "GOL"
        },
        {
          "icon": "&#xe614;",
          "name": "Food & Drinks",
          "category": "CUL"
        },
        {
          "icon": "&#xe610;",
          "name": "History",
          "category": "HIS"
        }
      ]
    },
    {
      "code": "ACA",
      "name": "Acapulco",
      "description": "Acapulco (ACA)",
      "coordinates": {
        "latitude": 16.7475,
        "longitude": -99.74611
      },
      "children": [
        {
          "code": "ACA",
          "name": "Alvarez Intl.",
          "description": "Acapulco - Alvarez Intl. (ACA), Mexico",
          "coordinates": {
            "latitude": 16.75556,
            "longitude": -99.76694
          }
        }
      ],
      "fare": {
        "origin": {
          "code": "AMS",
          "name": "Schiphol",
          "description": "Amsterdam - Schiphol (AMS), Netherlands",
          "coordinates": {
            "latitude": 52.30833,
            "longitude": 4.76806
          }
        },
        "departureDate": "2017-01-17",
        "returnDate": "2017-01-26",
        "amount": {
          "currency": "EUR",
          "price": 744.85
        },
        "possibleTravelTime": 45420000
      },
      "parent": {
        "code": "MX",
        "name": "Mexico",
        "description": "Mexico (MX)",
        "coordinates": {
          "latitude": 23,
          "longitude": -102
        },
        "parent": {
          "code": "C_AMER",
          "name": "Central America",
          "description": "Central America (C_AMER)",
          "coordinates": {
            "latitude": 13.5,
            "longitude": -88.5
          }
        }
      },
      "popularity": 6,
      "themes": [
        {
          "icon": "&#xe611;",
          "name": "Golf",
          "category": "GOL"
        },
        {
          "icon": "&#xe60d;",
          "name": "Music & Nightlife",
          "category": "MUS"
        },
        {
          "icon": "&#xe605;",
          "name": "Beach",
          "category": "BEA"
        },
        {
          "icon": "&#xe626;",
          "name": "Surfing",
          "category": "SUR"
        }
      ]
    },
    {
      "code": "ACC",
      "name": "Accra",
      "description": "Accra (ACC)",
      "coordinates": {
        "latitude": 5.59778,
        "longitude": -0.16611
      },
      "children": [
        {
          "code": "ACC",
          "name": "Kotoka Airport",
          "description": "Accra - Kotoka Airport (ACC), Ghana",
          "coordinates": {
            "latitude": 5.59528,
            "longitude": -0.17083
          }
        }
      ],
      "fare": {
        "origin": {
          "code": "AMS",
          "name": "Schiphol",
          "description": "Amsterdam - Schiphol (AMS), Netherlands",
          "coordinates": {
            "latitude": 52.30833,
            "longitude": 4.76806
          }
        },
        "departureDate": "2017-01-09",
        "returnDate": "2017-01-26",
        "amount": {
          "currency": "EUR",
          "price": 596.44
        },
        "possibleTravelTime": 23100000
      },
      "parent": {
        "code": "GH",
        "name": "Ghana",
        "description": "Ghana (GH)",
        "coordinates": {
          "latitude": 8,
          "longitude": -2
        },
        "parent": {
          "code": "AFRICA",
          "name": "Africa",
          "description": "Africa (AFRICA)",
          "coordinates": {
            "latitude": -4.915,
            "longitude": 25.664
          }
        }
      },
      "popularity": 5,
      "themes": [
        {
          "icon": "&#xe617;",
          "name": "Arts & Culture",
          "category": "ART"
        },
        {
          "icon": "&#xe60e;",
          "name": "Nature",
          "category": "NAT"
        },
        {
          "icon": "&#xe605;",
          "name": "Beach",
          "category": "BEA"
        }
      ]
    },
    {
      "code": "ACE",
      "name": "Lanzarote",
      "description": "Lanzarote (ACE)",
      "coordinates": {
        "latitude": 28.92861,
        "longitude": -13.32694
      },
      "children": [
        {
          "code": "ACE",
          "name": "Lanzarote",
          "description": "Lanzarote - Lanzarote (ACE), Spain",
          "coordinates": {
            "latitude": 28.9375,
            "longitude": -13.60361
          }
        }
      ],
      "fare": {
        "origin": {
          "code": "AMS",
          "name": "Schiphol",
          "description": "Amsterdam - Schiphol (AMS), Netherlands",
          "coordinates": {
            "latitude": 52.30833,
            "longitude": 4.76806
          }
        },
        "departureDate": "2017-01-07",
        "returnDate": "2017-01-17",
        "amount": {
          "currency": "EUR",
          "price": 224.83
        },
        "possibleTravelTime": 16200000
      },
      "parent": {
        "code": "ES",
        "name": "Spain",
        "description": "Spain (ES)",
        "coordinates": {
          "latitude": 40,
          "longitude": -4
        },
        "parent": {
          "code": "EUR",
          "name": "Europe",
          "description": "Europe (EUR)",
          "coordinates": {
            "latitude": 51.179,
            "longitude": 11.25
          }
        }
      },
      "popularity": 6,
      "themes": [
        {
          "icon": "&#xe611;",
          "name": "Golf",
          "category": "GOL"
        },
        {
          "icon": "&#xe60e;",
          "name": "Nature",
          "category": "NAT"
        },
        {
          "icon": "&#xe605;",
          "name": "Beach",
          "category": "BEA"
        }
      ]
    },
    {
      "code": "ADD",
      "name": "Addis Ababa",
      "description": "Addis Ababa (ADD)",
      "coordinates": {
        "latitude": 9.00111,
        "longitude": 38.73194
      },
      "children": [
        {
          "code": "ADD",
          "name": "Bole Airport",
          "description": "Addis Ababa - Bole Airport (ADD), Ethiopia",
          "coordinates": {
            "latitude": 8.97778,
            "longitude": 38.79806
          }
        }
      ],
      "fare": {
        "origin": {
          "code": "AMS",
          "name": "Schiphol",
          "description": "Amsterdam - Schiphol (AMS), Netherlands",
          "coordinates": {
            "latitude": 52.30833,
            "longitude": 4.76806
          }
        },
        "departureDate": "2017-01-17",
        "returnDate": "2017-01-30",
        "amount": {
          "currency": "EUR",
          "price": 760.51
        },
        "possibleTravelTime": 37500000
      },
      "parent": {
        "code": "ET",
        "name": "Ethiopia",
        "description": "Ethiopia (ET)",
        "coordinates": {
          "latitude": 8,
          "longitude": 38
        },
        "parent": {
          "code": "AFRICA",
          "name": "Africa",
          "description": "Africa (AFRICA)",
          "coordinates": {
            "latitude": -4.915,
            "longitude": 25.664
          }
        }
      },
      "popularity": 6,
      "themes": [
        {
          "icon": "&#xe617;",
          "name": "Arts & Culture",
          "category": "ART"
        },
        {
          "icon": "&#xe610;",
          "name": "History",
          "category": "HIS"
        },
        {
          "icon": "&#xe60e;",
          "name": "Nature",
          "category": "NAT"
        }
      ]
    },
    {
      "code": "ADL",
      "name": "Adelaide",
      "description": "Adelaide (ADL)",
      "coordinates": {
        "latitude": -34.95028,
        "longitude": 138.53528
      },
      "children": [
        {
          "code": "ADL",
          "name": "Adelaide Intl. Airport",
          "description": "Adelaide - Adelaide Intl. Airport (ADL), Australia",
          "coordinates": {
            "latitude": -34.94833,
            "longitude": 138.53472
          }
        }
      ],
      "fare": {
        "origin": {
          "code": "AMS",
          "name": "Schiphol",
          "description": "Amsterdam - Schiphol (AMS), Netherlands",
          "coordinates": {
            "latitude": 52.30833,
            "longitude": 4.76806
          }
        },
        "departureDate": "2016-12-30",
        "returnDate": "2017-01-15",
        "amount": {
          "currency": "EUR",
          "price": 1315.53
        },
        "possibleTravelTime": 70200000
      },
      "parent": {
        "code": "AU",
        "name": "Australia",
        "description": "Australia (AU)",
        "coordinates": {
          "latitude": -27,
          "longitude": 133
        },
        "parent": {
          "code": "OCEANI",
          "name": "Oceania",
          "description": "Oceania (OCEANI)",
          "coordinates": {
            "latitude": -19.642,
            "longitude": 128.671
          }
        }
      },
      "popularity": 6,
      "themes": [
        {
          "icon": "&#xe617;",
          "name": "Arts & Culture",
          "category": "ART"
        },
        {
          "icon": "&#xe614;",
          "name": "Food & Drinks",
          "category": "CUL"
        },
        {
          "icon": "&#xe605;",
          "name": "Beach",
          "category": "BEA"
        }
      ]
    },
    {
      "code": "AER",
      "name": "Sochi Intl.",
      "description": "Sochi Intl. (AER)",
      "coordinates": {
        "latitude": 43.46444,
        "longitude": 39.94639
      },
      "children": [
        {
          "code": "AER",
          "name": "Sochi",
          "description": "Sochi Intl. - Sochi (AER), Russia",
          "coordinates": {
            "latitude": 43.45,
            "longitude": 39.93333
          }
        }
      ],
      "fare": {
        "origin": {
          "code": "AMS",
          "name": "Schiphol",
          "description": "Amsterdam - Schiphol (AMS), Netherlands",
          "coordinates": {
            "latitude": 52.30833,
            "longitude": 4.76806
          }
        },
        "departureDate": "2017-01-20",
        "returnDate": "2017-01-24",
        "amount": {
          "currency": "EUR",
          "price": 435.34
        },
        "possibleTravelTime": 20700000
      },
      "parent": {
        "code": "RU",
        "name": "Russia",
        "description": "Russia (RU)",
        "coordinates": {
          "latitude": 60,
          "longitude": 100
        },
        "parent": {
          "code": "EUR",
          "name": "Europe",
          "description": "Europe (EUR)",
          "coordinates": {
            "latitude": 51.179,
            "longitude": 11.25
          }
        }
      },
      "popularity": 6,
      "themes": [
        {
          "icon": "&#xe606;",
          "name": "Skiing",
          "category": "SKI"
        },
        {
          "icon": "&#xe605;",
          "name": "Beach",
          "category": "BEA"
        },
        {
          "icon": "&#xe60f;",
          "name": "Luxury & Wellness",
          "category": "LUX"
        }
      ]
    },
    {
      "code": "AES",
      "name": "Alesund",
      "description": "Alesund (AES)",
      "coordinates": {
        "latitude": 62.3345,
        "longitude": 6.0711
      },
      "children": [
        {
          "code": "AES",
          "name": "Vigra",
          "description": "Alesund - Vigra (AES), Norway",
          "coordinates": {
            "latitude": 62.3345,
            "longitude": 6.0611
          }
        }
      ],
      "fare": {
        "origin": {
          "code": "AMS",
          "name": "Schiphol",
          "description": "Amsterdam - Schiphol (AMS), Netherlands",
          "coordinates": {
            "latitude": 52.30833,
            "longitude": 4.76806
          }
        },
        "departureDate": "2017-01-10",
        "returnDate": "2017-01-14",
        "amount": {
          "currency": "EUR",
          "price": 198.68
        },
        "possibleTravelTime": 7200000
      },
      "parent": {
        "code": "NO",
        "name": "Norway",
        "description": "Norway (NO)",
        "coordinates": {
          "latitude": 62,
          "longitude": 10
        },
        "parent": {
          "code": "EUR",
          "name": "Europe",
          "description": "Europe (EUR)",
          "coordinates": {
            "latitude": 51.179,
            "longitude": 11.25
          }
        }
      },
      "popularity": 5,
      "themes": [
        {
          "icon": "&#xe606;",
          "name": "Skiing",
          "category": "SKI"
        },
        {
          "icon": "&#xe617;",
          "name": "Arts & Culture",
          "category": "ART"
        },
        {
          "icon": "&#xe60e;",
          "name": "Nature",
          "category": "NAT"
        }
      ]
    },
    {
      "code": "AEX",
      "name": "Alexandria",
      "description": "Alexandria (AEX)",
      "coordinates": {
        "latitude": 31.335,
        "longitude": -92.54972
      },
      "children": [
        {
          "code": "AEX",
          "name": "Alexandria Intl.",
          "description": "Alexandria - Alexandria Intl. (AEX), USA",
          "coordinates": {
            "latitude": 31.33333,
            "longitude": -92.55
          }
        }
      ],
      "fare": {
        "origin": {
          "code": "AMS",
          "name": "Schiphol",
          "description": "Amsterdam - Schiphol (AMS), Netherlands",
          "coordinates": {
            "latitude": 52.30833,
            "longitude": 4.76806
          }
        },
        "departureDate": "2017-01-10",
        "returnDate": "2017-01-16",
        "amount": {
          "currency": "EUR",
          "price": 941.86
        },
        "possibleTravelTime": 40620000
      },
      "parent": {
        "code": "US",
        "name": "USA",
        "description": "USA (US)",
        "coordinates": {
          "latitude": 36,
          "longitude": -100
        },
        "parent": {
          "code": "N_AMER",
          "name": "North America",
          "description": "North America (N_AMER)",
          "coordinates": {
            "latitude": 46.316,
            "longitude": -105.46
          }
        }
      },
      "popularity": 6,
      "themes": [
        {
          "icon": "&#xe614;",
          "name": "Food & Drinks",
          "category": "CUL"
        },
        {
          "icon": "&#xe610;",
          "name": "History",
          "category": "HIS"
        },
        {
          "icon": "&#xe60e;",
          "name": "Nature",
          "category": "NAT"
        }
      ]
    },
    {
      "code": "AGF",
      "name": "Agen",
      "description": "Agen (AGF)",
      "coordinates": {
        "latitude": 44.19778,
        "longitude": 0.63583
      },
      "children": [
        {
          "code": "AGF",
          "name": "La Garenne",
          "description": "Agen - La Garenne (AGF), France",
          "coordinates": {
            "latitude": 44.17361,
            "longitude": 0.59861
          }
        }
      ],
      "fare": {
        "origin": {
          "code": "AMS",
          "name": "Schiphol",
          "description": "Amsterdam - Schiphol (AMS), Netherlands",
          "coordinates": {
            "latitude": 52.30833,
            "longitude": 4.76806
          }
        },
        "departureDate": "2017-01-12",
        "returnDate": "2017-02-01",
        "amount": {
          "currency": "EUR",
          "price": 356.73
        },
        "possibleTravelTime": 9600000
      },
      "parent": {
        "code": "FR",
        "name": "France",
        "description": "France (FR)",
        "coordinates": {
          "latitude": 46,
          "longitude": 2
        },
        "parent": {
          "code": "EUR",
          "name": "Europe",
          "description": "Europe (EUR)",
          "coordinates": {
            "latitude": 51.179,
            "longitude": 11.25
          }
        }
      }
    },
    {
      "code": "AGP",
      "name": "Malaga",
      "description": "Malaga (AGP)",
      "coordinates": {
        "latitude": 36.66333,
        "longitude": -4.48028
      },
      "children": [
        {
          "code": "AGP",
          "name": "Málaga",
          "description": "Malaga - Málaga (AGP), Spain",
          "coordinates": {
            "latitude": 36.67167,
            "longitude": -4.49806
          }
        }
      ],
      "fare": {
        "origin": {
          "code": "AMS",
          "name": "Schiphol",
          "description": "Amsterdam - Schiphol (AMS), Netherlands",
          "coordinates": {
            "latitude": 52.30833,
            "longitude": 4.76806
          }
        },
        "departureDate": "2017-01-04",
        "returnDate": "2017-01-12",
        "amount": {
          "currency": "EUR",
          "price": 189.08
        },
        "possibleTravelTime": 10800000
      },
      "parent": {
        "code": "ES",
        "name": "Spain",
        "description": "Spain (ES)",
        "coordinates": {
          "latitude": 40,
          "longitude": -4
        },
        "parent": {
          "code": "EUR",
          "name": "Europe",
          "description": "Europe (EUR)",
          "coordinates": {
            "latitude": 51.179,
            "longitude": 11.25
          }
        }
      },
      "popularity": 6,
      "themes": [
        {
          "icon": "&#xe611;",
          "name": "Golf",
          "category": "GOL"
        },
        {
          "icon": "&#xe614;",
          "name": "Food & Drinks",
          "category": "CUL"
        },
        {
          "icon": "&#xe605;",
          "name": "Beach",
          "category": "BEA"
        },
        {
          "icon": "&#xe626;",
          "name": "Surfing",
          "category": "SUR"
        }
      ]
    },
    {
      "code": "AGS",
      "name": "Augusta",
      "description": "Augusta (AGS)",
      "coordinates": {
        "latitude": 33.36889,
        "longitude": -81.96722
      },
      "children": [
        {
          "code": "AGS",
          "name": "Bush Field",
          "description": "Augusta - Bush Field (AGS), USA",
          "coordinates": {
            "latitude": 33.36639,
            "longitude": -81.96694
          }
        }
      ],
      "fare": {
        "origin": {
          "code": "AMS",
          "name": "Schiphol",
          "description": "Amsterdam - Schiphol (AMS), Netherlands",
          "coordinates": {
            "latitude": 52.30833,
            "longitude": 4.76806
          }
        },
        "departureDate": "2017-01-10",
        "returnDate": "2017-01-16",
        "amount": {
          "currency": "EUR",
          "price": 871.86
        },
        "possibleTravelTime": 37740000
      },
      "parent": {
        "code": "US",
        "name": "USA",
        "description": "USA (US)",
        "coordinates": {
          "latitude": 36,
          "longitude": -100
        },
        "parent": {
          "code": "N_AMER",
          "name": "North America",
          "description": "North America (N_AMER)",
          "coordinates": {
            "latitude": 46.316,
            "longitude": -105.46
          }
        }
      },
      "popularity": 6,
      "themes": [
        {
          "icon": "&#xe611;",
          "name": "Golf",
          "category": "GOL"
        },
        {
          "icon": "&#xe60d;",
          "name": "Music & Nightlife",
          "category": "MUS"
        },
        {
          "icon": "&#xe60e;",
          "name": "Nature",
          "category": "NAT"
        }
      ]
    },
    {
      "code": "AJA",
      "name": "Ajaccio",
      "description": "Ajaccio (AJA)",
      "coordinates": {
        "latitude": 41.916667,
        "longitude": 8.733333
      },
      "children": [
        {
          "code": "AJA",
          "name": "Ajaccio",
          "description": "Ajaccio - Ajaccio (AJA), France",
          "coordinates": {
            "latitude": 41.92417,
            "longitude": 8.80306
          }
        }
      ],
      "fare": {
        "origin": {
          "code": "AMS",
          "name": "Schiphol",
          "description": "Amsterdam - Schiphol (AMS), Netherlands",
          "coordinates": {
            "latitude": 52.30833,
            "longitude": 4.76806
          }
        },
        "departureDate": "2017-01-07",
        "returnDate": "2017-01-10",
        "amount": {
          "currency": "EUR",
          "price": 279.34
        },
        "possibleTravelTime": 9300000
      },
      "parent": {
        "code": "FR",
        "name": "France",
        "description": "France (FR)",
        "coordinates": {
          "latitude": 46,
          "longitude": 2
        },
        "parent": {
          "code": "EUR",
          "name": "Europe",
          "description": "Europe (EUR)",
          "coordinates": {
            "latitude": 51.179,
            "longitude": 11.25
          }
        }
      },
      "popularity": 6,
      "themes": [
        {
          "icon": "&#xe610;",
          "name": "History",
          "category": "HIS"
        },
        {
          "icon": "&#xe60e;",
          "name": "Nature",
          "category": "NAT"
        },
        {
          "icon": "&#xe605;",
          "name": "Beach",
          "category": "BEA"
        }
      ]
    },
    {
      "code": "AKL",
      "name": "Auckland",
      "description": "Auckland (AKL)",
      "coordinates": {
        "latitude": -37.01861,
        "longitude": 174.79778
      },
      "children": [
        {
          "code": "AKL",
          "name": "Auckland",
          "description": "Auckland - Auckland (AKL), New Zealand",
          "coordinates": {
            "latitude": -37.01111,
            "longitude": 174.79917
          }
        }
      ],
      "fare": {
        "origin": {
          "code": "AMS",
          "name": "Schiphol",
          "description": "Amsterdam - Schiphol (AMS), Netherlands",
          "coordinates": {
            "latitude": 52.30833,
            "longitude": 4.76806
          }
        },
        "departureDate": "2017-01-15",
        "returnDate": "2017-01-23",
        "amount": {
          "currency": "EUR",
          "price": 1383.11
        },
        "possibleTravelTime": 78000000
      },
      "parent": {
        "code": "NZ",
        "name": "New Zealand",
        "description": "New Zealand (NZ)",
        "coordinates": {
          "latitude": -41,
          "longitude": 174
        },
        "parent": {
          "code": "OCEANI",
          "name": "Oceania",
          "description": "Oceania (OCEANI)",
          "coordinates": {
            "latitude": -19.642,
            "longitude": 128.671
          }
        }
      },
      "popularity": 6,
      "themes": [
        {
          "icon": "&#xe612;",
          "name": "Active & Outdoor",
          "category": "ACT"
        },
        {
          "icon": "&#xe614;",
          "name": "Food & Drinks",
          "category": "CUL"
        },
        {
          "icon": "&#xe60e;",
          "name": "Nature",
          "category": "NAT"
        },
        {
          "icon": "&#xe626;",
          "name": "Surfing",
          "category": "SUR"
        }
      ]
    },
    {
      "code": "ALA",
      "name": "Almaty",
      "description": "Almaty (ALA)",
      "coordinates": {
        "latitude": 43.31556,
        "longitude": 76.91361
      },
      "children": [
        {
          "code": "ALA",
          "name": "Almaty",
          "description": "Almaty - Almaty (ALA), Kazakhstan",
          "coordinates": {
            "latitude": 43.35,
            "longitude": 77.03333
          }
        }
      ],
      "fare": {
        "origin": {
          "code": "AMS",
          "name": "Schiphol",
          "description": "Amsterdam - Schiphol (AMS), Netherlands",
          "coordinates": {
            "latitude": 52.30833,
            "longitude": 4.76806
          }
        },
        "departureDate": "2017-01-03",
        "returnDate": "2017-01-23",
        "amount": {
          "currency": "EUR",
          "price": 397.4
        },
        "possibleTravelTime": 23700000
      },
      "parent": {
        "code": "KZ",
        "name": "Kazakhstan",
        "description": "Kazakhstan (KZ)",
        "coordinates": {
          "latitude": 48,
          "longitude": 68
        },
        "parent": {
          "code": "ASIA",
          "name": "Asia",
          "description": "Asia (ASIA)",
          "coordinates": {
            "latitude": 36.879,
            "longitude": 86.132
          }
        }
      },
      "popularity": 5,
      "themes": [
        {
          "icon": "&#xe617;",
          "name": "Arts & Culture",
          "category": "ART"
        },
        {
          "icon": "&#xe610;",
          "name": "History",
          "category": "HIS"
        },
        {
          "icon": "&#xe607;",
          "name": "Shopping",
          "category": "SHO"
        }
      ]
    },
    {
      "code": "ALB",
      "name": "Albany, NY",
      "description": "Albany, NY (ALB)",
      "coordinates": {
        "latitude": 42.74833,
        "longitude": -73.8025
      },
      "children": [
        {
          "code": "ALB",
          "name": "Albany Intl. Airport",
          "description": "Albany, NY - Albany Intl. Airport (ALB), USA",
          "coordinates": {
            "latitude": 42.74583,
            "longitude": -73.80528
          }
        }
      ],
      "fare": {
        "origin": {
          "code": "AMS",
          "name": "Schiphol",
          "description": "Amsterdam - Schiphol (AMS), Netherlands",
          "coordinates": {
            "latitude": 52.30833,
            "longitude": 4.76806
          }
        },
        "departureDate": "2017-01-09",
        "returnDate": "2017-01-16",
        "amount": {
          "currency": "EUR",
          "price": 857.86
        },
        "possibleTravelTime": 36060000
      },
      "parent": {
        "code": "US",
        "name": "USA",
        "description": "USA (US)",
        "coordinates": {
          "latitude": 36,
          "longitude": -100
        },
        "parent": {
          "code": "N_AMER",
          "name": "North America",
          "description": "North America (N_AMER)",
          "coordinates": {
            "latitude": 46.316,
            "longitude": -105.46
          }
        }
      },
      "popularity": 6,
      "themes": [
        {
          "icon": "&#xe617;",
          "name": "Arts & Culture",
          "category": "ART"
        },
        {
          "icon": "&#xe618;",
          "name": "Architecture",
          "category": "ARC"
        },
        {
          "icon": "&#xe60d;",
          "name": "Music & Nightlife",
          "category": "MUS"
        }
      ]
    },
    {
      "code": "ALC",
      "name": "Alicante",
      "description": "Alicante (ALC)",
      "coordinates": {
        "latitude": 38.38222,
        "longitude": -0.49833
      },
      "children": [
        {
          "code": "ALC",
          "name": "Alicante",
          "description": "Alicante - Alicante (ALC), Spain",
          "coordinates": {
            "latitude": 38.38222,
            "longitude": -0.49833
          }
        }
      ],
      "fare": {
        "origin": {
          "code": "AMS",
          "name": "Schiphol",
          "description": "Amsterdam - Schiphol (AMS), Netherlands",
          "coordinates": {
            "latitude": 52.30833,
            "longitude": 4.76806
          }
        },
        "departureDate": "2017-01-01",
        "returnDate": "2017-01-18",
        "amount": {
          "currency": "EUR",
          "price": 118.86
        },
        "possibleTravelTime": 9300000
      },
      "parent": {
        "code": "ES",
        "name": "Spain",
        "description": "Spain (ES)",
        "coordinates": {
          "latitude": 40,
          "longitude": -4
        },
        "parent": {
          "code": "EUR",
          "name": "Europe",
          "description": "Europe (EUR)",
          "coordinates": {
            "latitude": 51.179,
            "longitude": 11.25
          }
        }
      },
      "popularity": 2,
      "themes": [
        {
          "icon": "&#xe614;",
          "name": "Food & Drinks",
          "category": "CUL"
        },
        {
          "icon": "&#xe610;",
          "name": "History",
          "category": "HIS"
        },
        {
          "icon": "&#xe605;",
          "name": "Beach",
          "category": "BEA"
        }
      ]
    },
    {
      "code": "ALG",
      "name": "Algiers",
      "description": "Algiers (ALG)",
      "coordinates": {
        "latitude": 36.7,
        "longitude": 3.211
      },
      "children": [
        {
          "code": "ALG",
          "name": "Houari Boumediene",
          "description": "Algiers - Houari Boumediene (ALG), Algeria",
          "coordinates": {
            "latitude": 36.7,
            "longitude": 3.211
          }
        }
      ],
      "fare": {
        "origin": {
          "code": "AMS",
          "name": "Schiphol",
          "description": "Amsterdam - Schiphol (AMS), Netherlands",
          "coordinates": {
            "latitude": 52.30833,
            "longitude": 4.76806
          }
        },
        "departureDate": "2017-01-05",
        "returnDate": "2017-01-09",
        "amount": {
          "currency": "EUR",
          "price": 209.01
        },
        "possibleTravelTime": 12600000
      },
      "parent": {
        "code": "DZ",
        "name": "Algeria",
        "description": "Algeria (DZ)",
        "coordinates": {
          "latitude": 28,
          "longitude": 3
        },
        "parent": {
          "code": "AFRICA",
          "name": "Africa",
          "description": "Africa (AFRICA)",
          "coordinates": {
            "latitude": -4.915,
            "longitude": 25.664
          }
        }
      },
      "popularity": 6,
      "themes": [
        {
          "icon": "&#xe618;",
          "name": "Architecture",
          "category": "ARC"
        },
        {
          "icon": "&#xe614;",
          "name": "Food & Drinks",
          "category": "CUL"
        },
        {
          "icon": "&#xe610;",
          "name": "History",
          "category": "HIS"
        }
      ]
    },
    {
      "code": "AMM",
      "name": "Amman",
      "description": "Amman (AMM)",
      "coordinates": {
        "latitude": 31.94806,
        "longitude": 35.98167
      },
      "children": [
        {
          "code": "AMM",
          "name": "Queen Alia",
          "description": "Amman - Queen Alia (AMM), Jordan",
          "coordinates": {
            "latitude": 31.71667,
            "longitude": 36
          }
        }
      ],
      "fare": {
        "origin": {
          "code": "AMS",
          "name": "Schiphol",
          "description": "Amsterdam - Schiphol (AMS), Netherlands",
          "coordinates": {
            "latitude": 52.30833,
            "longitude": 4.76806
          }
        },
        "departureDate": "2017-01-11",
        "returnDate": "2017-01-31",
        "amount": {
          "currency": "EUR",
          "price": 387
        },
        "possibleTravelTime": 21300000
      },
      "parent": {
        "code": "JO",
        "name": "Jordan",
        "description": "Jordan (JO)",
        "coordinates": {
          "latitude": 31,
          "longitude": 36
        },
        "parent": {
          "code": "MIDDLE_EAST",
          "name": "Middle East",
          "description": "Middle East (MIDDLE_EAST)",
          "coordinates": {
            "latitude": 31.2,
            "longitude": 32.5
          }
        }
      },
      "popularity": 6,
      "themes": [
        {
          "icon": "&#xe612;",
          "name": "Active & Outdoor",
          "category": "ACT"
        },
        {
          "icon": "&#xe610;",
          "name": "History",
          "category": "HIS"
        },
        {
          "icon": "&#xe607;",
          "name": "Shopping",
          "category": "SHO"
        }
      ]
    },
    {
      "code": "ANC",
      "name": "Anchorage",
      "description": "Anchorage (ANC)",
      "coordinates": {
        "latitude": 61.16889,
        "longitude": -149.98306
      },
      "children": [
        {
          "code": "ANC",
          "name": "Anchorage Intl.",
          "description": "Anchorage - Anchorage Intl. (ANC), USA",
          "coordinates": {
            "latitude": 61.16917,
            "longitude": -149.98528
          }
        }
      ],
      "fare": {
        "origin": {
          "code": "AMS",
          "name": "Schiphol",
          "description": "Amsterdam - Schiphol (AMS), Netherlands",
          "coordinates": {
            "latitude": 52.30833,
            "longitude": 4.76806
          }
        },
        "departureDate": "2016-12-10",
        "returnDate": "2016-12-15",
        "amount": {
          "currency": "EUR",
          "price": 2423.36
        },
        "possibleTravelTime": 49560000
      },
      "parent": {
        "code": "US",
        "name": "USA",
        "description": "USA (US)",
        "coordinates": {
          "latitude": 36,
          "longitude": -100
        },
        "parent": {
          "code": "N_AMER",
          "name": "North America",
          "description": "North America (N_AMER)",
          "coordinates": {
            "latitude": 46.316,
            "longitude": -105.46
          }
        }
      },
      "popularity": 6,
      "themes": [
        {
          "icon": "&#xe606;",
          "name": "Skiing",
          "category": "SKI"
        },
        {
          "icon": "&#xe612;",
          "name": "Active & Outdoor",
          "category": "ACT"
        },
        {
          "icon": "&#xe60e;",
          "name": "Nature",
          "category": "NAT"
        }
      ]
    },
    {
      "code": "APL",
      "name": "Nampula",
      "description": "Nampula (APL)",
      "coordinates": {
        "latitude": -15.09722,
        "longitude": 39.28194
      },
      "children": [
        {
          "code": "APL",
          "name": "Nampula",
          "description": "Nampula - Nampula (APL), Mozambique",
          "coordinates": {
            "latitude": -15.10167,
            "longitude": 39.28722
          }
        }
      ],
      "fare": {
        "origin": {
          "code": "AMS",
          "name": "Schiphol",
          "description": "Amsterdam - Schiphol (AMS), Netherlands",
          "coordinates": {
            "latitude": 52.30833,
            "longitude": 4.76806
          }
        },
        "departureDate": "2017-01-17",
        "returnDate": "2017-01-30",
        "amount": {
          "currency": "EUR",
          "price": 1049.67
        },
        "possibleTravelTime": 39000000
      },
      "parent": {
        "code": "MZ",
        "name": "Mozambique",
        "description": "Mozambique (MZ)",
        "coordinates": {
          "latitude": -18.15,
          "longitude": 35
        },
        "parent": {
          "code": "AFRICA",
          "name": "Africa",
          "description": "Africa (AFRICA)",
          "coordinates": {
            "latitude": -4.915,
            "longitude": 25.664
          }
        }
      },
      "popularity": 6,
      "themes": [
        {
          "icon": "&#xe617;",
          "name": "Arts & Culture",
          "category": "ART"
        },
        {
          "icon": "&#xe610;",
          "name": "History",
          "category": "HIS"
        },
        {
          "icon": "&#xe605;",
          "name": "Beach",
          "category": "BEA"
        }
      ]
    },
    {
      "code": "ATH",
      "name": "Athens",
      "description": "Athens (ATH)",
      "coordinates": {
        "latitude": 37.90111,
        "longitude": 23.73167
      },
      "children": [
        {
          "code": "ATH",
          "name": "Athens Int. E Venizelos",
          "description": "Athens - Athens Int. E Venizelos (ATH), Greece",
          "coordinates": {
            "latitude": 37.93639,
            "longitude": 23.94444
          }
        }
      ],
      "fare": {
        "origin": {
          "code": "AMS",
          "name": "Schiphol",
          "description": "Amsterdam - Schiphol (AMS), Netherlands",
          "coordinates": {
            "latitude": 52.30833,
            "longitude": 4.76806
          }
        },
        "departureDate": "2017-01-18",
        "returnDate": "2017-01-31",
        "amount": {
          "currency": "EUR",
          "price": 128.42
        },
        "possibleTravelTime": 11400000
      },
      "parent": {
        "code": "GR",
        "name": "Greece",
        "description": "Greece (GR)",
        "coordinates": {
          "latitude": 39,
          "longitude": 22
        },
        "parent": {
          "code": "EUR",
          "name": "Europe",
          "description": "Europe (EUR)",
          "coordinates": {
            "latitude": 51.179,
            "longitude": 11.25
          }
        }
      },
      "popularity": 4,
      "themes": [
        {
          "icon": "&#xe614;",
          "name": "Food & Drinks",
          "category": "CUL"
        },
        {
          "icon": "&#xe610;",
          "name": "History",
          "category": "HIS"
        },
        {
          "icon": "&#xe60a;",
          "name": "Romance",
          "category": "ROM"
        }
      ]
    },
    {
      "code": "ATL",
      "name": "Atlanta",
      "description": "Atlanta (ATL)",
      "coordinates": {
        "latitude": 33.64972,
        "longitude": -84.43083
      },
      "children": [
        {
          "code": "ATL",
          "name": "Hartsfield-Jackson",
          "description": "Atlanta - Hartsfield-Jackson (ATL), USA",
          "coordinates": {
            "latitude": 33.64083,
            "longitude": -84.42722
          }
        }
      ],
      "fare": {
        "origin": {
          "code": "AMS",
          "name": "Schiphol",
          "description": "Amsterdam - Schiphol (AMS), Netherlands",
          "coordinates": {
            "latitude": 52.30833,
            "longitude": 4.76806
          }
        },
        "departureDate": "2017-01-11",
        "returnDate": "2017-01-18",
        "amount": {
          "currency": "EUR",
          "price": 620.63
        },
        "possibleTravelTime": 34020000
      },
      "parent": {
        "code": "US",
        "name": "USA",
        "description": "USA (US)",
        "coordinates": {
          "latitude": 36,
          "longitude": -100
        },
        "parent": {
          "code": "N_AMER",
          "name": "North America",
          "description": "North America (N_AMER)",
          "coordinates": {
            "latitude": 46.316,
            "longitude": -105.46
          }
        }
      },
      "popularity": 5,
      "themes": [
        {
          "icon": "&#xe614;",
          "name": "Food & Drinks",
          "category": "CUL"
        },
        {
          "icon": "&#xe610;",
          "name": "History",
          "category": "HIS"
        },
        {
          "icon": "&#xe613;",
          "name": "Family fun",
          "category": "FAM"
        }
      ]
    },
    {
      "code": "ATW",
      "name": "Appleton",
      "description": "Appleton (ATW)",
      "coordinates": {
        "latitude": 44.27806,
        "longitude": -88.41306
      },
      "children": [
        {
          "code": "ATW",
          "name": "Outagamie County Airport",
          "description": "Appleton - Outagamie County Airport (ATW), USA",
          "coordinates": {
            "latitude": 44.25889,
            "longitude": -88.52111
          }
        }
      ],
      "fare": {
        "origin": {
          "code": "AMS",
          "name": "Schiphol",
          "description": "Amsterdam - Schiphol (AMS), Netherlands",
          "coordinates": {
            "latitude": 52.30833,
            "longitude": 4.76806
          }
        },
        "departureDate": "2016-12-29",
        "returnDate": "2017-01-12",
        "amount": {
          "currency": "EUR",
          "price": 869.86
        },
        "possibleTravelTime": 35520000
      },
      "parent": {
        "code": "US",
        "name": "USA",
        "description": "USA (US)",
        "coordinates": {
          "latitude": 36,
          "longitude": -100
        },
        "parent": {
          "code": "N_AMER",
          "name": "North America",
          "description": "North America (N_AMER)",
          "coordinates": {
            "latitude": 46.316,
            "longitude": -105.46
          }
        }
      },
      "popularity": 6,
      "themes": [
        {
          "icon": "&#xe610;",
          "name": "History",
          "category": "HIS"
        },
        {
          "icon": "&#xe60e;",
          "name": "Nature",
          "category": "NAT"
        },
        {
          "icon": "&#xe607;",
          "name": "Shopping",
          "category": "SHO"
        }
      ]
    },
    {
      "code": "AUA",
      "name": "Aruba",
      "description": "Aruba (AUA)",
      "coordinates": {
        "latitude": 12.50167,
        "longitude": -69.99806
      },
      "children": [
        {
          "code": "AUA",
          "name": "Queen Beatrix Airport",
          "description": "Aruba - Queen Beatrix Airport (AUA), Aruba",
          "coordinates": {
            "latitude": 12.50222,
            "longitude": -70.01389
          }
        }
      ],
      "fare": {
        "origin": {
          "code": "AMS",
          "name": "Schiphol",
          "description": "Amsterdam - Schiphol (AMS), Netherlands",
          "coordinates": {
            "latitude": 52.30833,
            "longitude": 4.76806
          }
        },
        "departureDate": "2017-01-05",
        "returnDate": "2017-01-23",
        "amount": {
          "currency": "EUR",
          "price": 526.8
        },
        "possibleTravelTime": 36300000
      },
      "parent": {
        "code": "AW",
        "name": "Aruba",
        "description": "Aruba (AW)",
        "coordinates": {
          "latitude": 12.3,
          "longitude": -69.58
        },
        "parent": {
          "code": "C_AMER",
          "name": "Central America",
          "description": "Central America (C_AMER)",
          "coordinates": {
            "latitude": 13.5,
            "longitude": -88.5
          }
        }
      },
      "popularity": 2,
      "themes": [
        {
          "icon": "&#xe608;",
          "name": "Diving & Snorkeling",
          "category": "DIV"
        },
        {
          "icon": "&#xe605;",
          "name": "Beach",
          "category": "BEA"
        },
        {
          "icon": "&#xe60a;",
          "name": "Romance",
          "category": "ROM"
        },
        {
          "icon": "&#xe626;",
          "name": "Surfing",
          "category": "SUR"
        }
      ]
    },
    {
      "code": "AUH",
      "name": "Abu Dhabi",
      "description": "Abu Dhabi (AUH)",
      "coordinates": {
        "latitude": 24.47083,
        "longitude": 54.46528
      },
      "children": [
        {
          "code": "AUH",
          "name": "Abu Dhabi Intl.",
          "description": "Abu Dhabi - Abu Dhabi Intl. (AUH), United Arab Emirates",
          "coordinates": {
            "latitude": 24.43333,
            "longitude": 54.65
          }
        }
      ],
      "fare": {
        "origin": {
          "code": "AMS",
          "name": "Schiphol",
          "description": "Amsterdam - Schiphol (AMS), Netherlands",
          "coordinates": {
            "latitude": 52.30833,
            "longitude": 4.76806
          }
        },
        "departureDate": "2017-01-11",
        "returnDate": "2017-01-18",
        "amount": {
          "currency": "EUR",
          "price": 535.01
        },
        "possibleTravelTime": 24600000
      },
      "parent": {
        "code": "AE",
        "name": "United Arab Emirates",
        "description": "United Arab Emirates (AE)",
        "coordinates": {
          "latitude": 24,
          "longitude": 54
        },
        "parent": {
          "code": "MIDDLE_EAST",
          "name": "Middle East",
          "description": "Middle East (MIDDLE_EAST)",
          "coordinates": {
            "latitude": 31.2,
            "longitude": 32.5
          }
        }
      },
      "popularity": 5,
      "themes": [
        {
          "icon": "&#xe612;",
          "name": "Active & Outdoor",
          "category": "ACT"
        },
        {
          "icon": "&#xe605;",
          "name": "Beach",
          "category": "BEA"
        },
        {
          "icon": "&#xe613;",
          "name": "Family fun",
          "category": "FAM"
        }
      ]
    },
    {
      "code": "AUS",
      "name": "Austin",
      "description": "Austin (AUS)",
      "coordinates": {
        "latitude": 30.30944,
        "longitude": -97.70056
      },
      "children": [
        {
          "code": "AUS",
          "name": "Bergstrom International",
          "description": "Austin - Bergstrom International (AUS), USA",
          "coordinates": {
            "latitude": 30.2,
            "longitude": -97.66667
          }
        }
      ],
      "fare": {
        "origin": {
          "code": "AMS",
          "name": "Schiphol",
          "description": "Amsterdam - Schiphol (AMS), Netherlands",
          "coordinates": {
            "latitude": 52.30833,
            "longitude": 4.76806
          }
        },
        "departureDate": "2017-01-09",
        "returnDate": "2017-01-17",
        "amount": {
          "currency": "EUR",
          "price": 884.86
        },
        "possibleTravelTime": 42000000
      },
      "parent": {
        "code": "US",
        "name": "USA",
        "description": "USA (US)",
        "coordinates": {
          "latitude": 36,
          "longitude": -100
        },
        "parent": {
          "code": "N_AMER",
          "name": "North America",
          "description": "North America (N_AMER)",
          "coordinates": {
            "latitude": 46.316,
            "longitude": -105.46
          }
        }
      },
      "popularity": 6,
      "themes": [
        {
          "icon": "&#xe612;",
          "name": "Active & Outdoor",
          "category": "ACT"
        },
        {
          "icon": "&#xe60d;",
          "name": "Music & Nightlife",
          "category": "MUS"
        },
        {
          "icon": "&#xe60e;",
          "name": "Nature",
          "category": "NAT"
        }
      ]
    },
    {
      "code": "AUW",
      "name": "Wausau",
      "description": "Wausau (AUW)",
      "coordinates": {
        "latitude": 44.929,
        "longitude": -89.627633
      },
      "children": [
        {
          "code": "CWA",
          "name": "Central Wisconsin Airport",
          "description": "Wausau - Central Wisconsin Airport (CWA), USA",
          "coordinates": {
            "latitude": 44.78222,
            "longitude": -89.65917
          }
        }
      ],
      "fare": {
        "origin": {
          "code": "AMS",
          "name": "Schiphol",
          "description": "Amsterdam - Schiphol (AMS), Netherlands",
          "coordinates": {
            "latitude": 52.30833,
            "longitude": 4.76806
          }
        },
        "departureDate": "2017-01-10",
        "returnDate": "2017-01-16",
        "amount": {
          "currency": "EUR",
          "price": 911.75
        },
        "possibleTravelTime": 35760000
      },
      "parent": {
        "code": "US",
        "name": "USA",
        "description": "USA (US)",
        "coordinates": {
          "latitude": 36,
          "longitude": -100
        },
        "parent": {
          "code": "N_AMER",
          "name": "North America",
          "description": "North America (N_AMER)",
          "coordinates": {
            "latitude": 46.316,
            "longitude": -105.46
          }
        }
      },
      "popularity": 6,
      "themes": [
        {
          "icon": "&#xe606;",
          "name": "Skiing",
          "category": "SKI"
        },
        {
          "icon": "&#xe617;",
          "name": "Arts & Culture",
          "category": "ART"
        },
        {
          "icon": "&#xe60e;",
          "name": "Nature",
          "category": "NAT"
        }
      ]
    },
    {
      "code": "AVL",
      "name": "Asheville",
      "description": "Asheville (AVL)",
      "coordinates": {
        "latitude": 35.43167,
        "longitude": -82.53444
      },
      "children": [
        {
          "code": "AVL",
          "name": "Asheville Regional",
          "description": "Asheville - Asheville Regional (AVL), USA",
          "coordinates": {
            "latitude": 35.435,
            "longitude": -82.54111
          }
        }
      ],
      "fare": {
        "origin": {
          "code": "AMS",
          "name": "Schiphol",
          "description": "Amsterdam - Schiphol (AMS), Netherlands",
          "coordinates": {
            "latitude": 52.30833,
            "longitude": 4.76806
          }
        },
        "departureDate": "2017-01-10",
        "returnDate": "2017-01-16",
        "amount": {
          "currency": "EUR",
          "price": 805.75
        },
        "possibleTravelTime": 37860000
      },
      "parent": {
        "code": "US",
        "name": "USA",
        "description": "USA (US)",
        "coordinates": {
          "latitude": 36,
          "longitude": -100
        },
        "parent": {
          "code": "N_AMER",
          "name": "North America",
          "description": "North America (N_AMER)",
          "coordinates": {
            "latitude": 46.316,
            "longitude": -105.46
          }
        }
      },
      "popularity": 6,
      "themes": [
        {
          "icon": "&#xe614;",
          "name": "Food & Drinks",
          "category": "CUL"
        },
        {
          "icon": "&#xe60e;",
          "name": "Nature",
          "category": "NAT"
        },
        {
          "icon": "&#xe60f;",
          "name": "Luxury & Wellness",
          "category": "LUX"
        }
      ]
    },
    {
      "code": "AVP",
      "name": "Scranton",
      "description": "Scranton (AVP)",
      "coordinates": {
        "latitude": 41.33306,
        "longitude": -75.71611
      },
      "children": [
        {
          "code": "AVP",
          "name": "Scranton Intl",
          "description": "Scranton - Scranton Intl (AVP), USA",
          "coordinates": {
            "latitude": 41.33917,
            "longitude": -75.72583
          }
        }
      ],
      "fare": {
        "origin": {
          "code": "AMS",
          "name": "Schiphol",
          "description": "Amsterdam - Schiphol (AMS), Netherlands",
          "coordinates": {
            "latitude": 52.30833,
            "longitude": 4.76806
          }
        },
        "departureDate": "2017-01-11",
        "returnDate": "2017-01-16",
        "amount": {
          "currency": "EUR",
          "price": 790.75
        },
        "possibleTravelTime": 35700000
      },
      "parent": {
        "code": "US",
        "name": "USA",
        "description": "USA (US)",
        "coordinates": {
          "latitude": 36,
          "longitude": -100
        },
        "parent": {
          "code": "N_AMER",
          "name": "North America",
          "description": "North America (N_AMER)",
          "coordinates": {
            "latitude": 46.316,
            "longitude": -105.46
          }
        }
      },
      "popularity": 6,
      "themes": [
        {
          "icon": "&#xe612;",
          "name": "Active & Outdoor",
          "category": "ACT"
        },
        {
          "icon": "&#xe618;",
          "name": "Architecture",
          "category": "ARC"
        },
        {
          "icon": "&#xe610;",
          "name": "History",
          "category": "HIS"
        }
      ]
    },
    {
      "code": "AZO",
      "name": "Kalamazoo",
      "description": "Kalamazoo (AZO)",
      "coordinates": {
        "latitude": 42.2325,
        "longitude": -85.54806
      },
      "children": [
        {
          "code": "AZO",
          "name": "Battle Creek International",
          "description": "Kalamazoo - Battle Creek International (AZO), USA",
          "coordinates": {
            "latitude": 42.23639,
            "longitude": -85.55361
          }
        }
      ],
      "fare": {
        "origin": {
          "code": "AMS",
          "name": "Schiphol",
          "description": "Amsterdam - Schiphol (AMS), Netherlands",
          "coordinates": {
            "latitude": 52.30833,
            "longitude": 4.76806
          }
        },
        "departureDate": "2016-12-20",
        "returnDate": "2017-01-09",
        "amount": {
          "currency": "EUR",
          "price": 869.86
        },
        "possibleTravelTime": 33780000
      },
      "parent": {
        "code": "US",
        "name": "USA",
        "description": "USA (US)",
        "coordinates": {
          "latitude": 36,
          "longitude": -100
        },
        "parent": {
          "code": "N_AMER",
          "name": "North America",
          "description": "North America (N_AMER)",
          "coordinates": {
            "latitude": 46.316,
            "longitude": -105.46
          }
        }
      },
      "popularity": 6,
      "themes": [
        {
          "icon": "&#xe617;",
          "name": "Arts & Culture",
          "category": "ART"
        },
        {
          "icon": "&#xe60d;",
          "name": "Music & Nightlife",
          "category": "MUS"
        },
        {
          "icon": "&#xe607;",
          "name": "Shopping",
          "category": "SHO"
        }
      ]
    },
    {
      "code": "BAH",
      "name": "Bahrain",
      "description": "Bahrain (BAH)",
      "coordinates": {
        "latitude": 26.20111,
        "longitude": 50.50028
      },
      "children": [
        {
          "code": "BAH",
          "name": "International Airport",
          "description": "Bahrain - International Airport (BAH), Bahrain",
          "coordinates": {
            "latitude": 26.27083,
            "longitude": 50.6375
          }
        }
      ],
      "fare": {
        "origin": {
          "code": "AMS",
          "name": "Schiphol",
          "description": "Amsterdam - Schiphol (AMS), Netherlands",
          "coordinates": {
            "latitude": 52.30833,
            "longitude": 4.76806
          }
        },
        "departureDate": "2016-12-12",
        "returnDate": "2016-12-26",
        "amount": {
          "currency": "EUR",
          "price": 570.21
        },
        "possibleTravelTime": 25200000
      },
      "parent": {
        "code": "BH",
        "name": "Bahrain",
        "description": "Bahrain (BH)",
        "coordinates": {
          "latitude": 26,
          "longitude": 50.33
        },
        "parent": {
          "code": "MIDDLE_EAST",
          "name": "Middle East",
          "description": "Middle East (MIDDLE_EAST)",
          "coordinates": {
            "latitude": 31.2,
            "longitude": 32.5
          }
        }
      },
      "popularity": 4,
      "themes": [
        {
          "icon": "&#xe608;",
          "name": "Diving & Snorkeling",
          "category": "DIV"
        },
        {
          "icon": "&#xe610;",
          "name": "History",
          "category": "HIS"
        },
        {
          "icon": "&#xe607;",
          "name": "Shopping",
          "category": "SHO"
        }
      ]
    },
    {
      "code": "BAK",
      "name": "Baku",
      "description": "Baku (BAK)",
      "coordinates": {
        "latitude": 40.36472,
        "longitude": 49.88167
      },
      "children": [
        {
          "code": "GYD",
          "name": "Heydar Aliyev Intl",
          "description": "Baku - Heydar Aliyev Intl (GYD), Azerbaijan",
          "coordinates": {
            "latitude": 40.5,
            "longitude": 49.98333
          }
        }
      ],
      "fare": {
        "origin": {
          "code": "AMS",
          "name": "Schiphol",
          "description": "Amsterdam - Schiphol (AMS), Netherlands",
          "coordinates": {
            "latitude": 52.30833,
            "longitude": 4.76806
          }
        },
        "departureDate": "2017-01-16",
        "returnDate": "2017-01-19",
        "amount": {
          "currency": "EUR",
          "price": 531.67
        },
        "possibleTravelTime": 22800000
      },
      "parent": {
        "code": "AZ",
        "name": "Azerbaijan",
        "description": "Azerbaijan (AZ)",
        "coordinates": {
          "latitude": 40.3,
          "longitude": 47.3
        },
        "parent": {
          "code": "ASIA",
          "name": "Asia",
          "description": "Asia (ASIA)",
          "coordinates": {
            "latitude": 36.879,
            "longitude": 86.132
          }
        }
      },
      "popularity": 6,
      "themes": [
        {
          "icon": "&#xe617;",
          "name": "Arts & Culture",
          "category": "ART"
        },
        {
          "icon": "&#xe610;",
          "name": "History",
          "category": "HIS"
        },
        {
          "icon": "&#xe607;",
          "name": "Shopping",
          "category": "SHO"
        }
      ]
    },
    {
      "code": "BCN",
      "name": "Barcelona",
      "description": "Barcelona (BCN)",
      "coordinates": {
        "latitude": 41.29861,
        "longitude": 2.08556
      },
      "children": [
        {
          "code": "BCN",
          "name": "Barcelona",
          "description": "Barcelona - Barcelona (BCN), Spain",
          "coordinates": {
            "latitude": 41.29694,
            "longitude": 2.07833
          }
        }
      ],
      "fare": {
        "origin": {
          "code": "AMS",
          "name": "Schiphol",
          "description": "Amsterdam - Schiphol (AMS), Netherlands",
          "coordinates": {
            "latitude": 52.30833,
            "longitude": 4.76806
          }
        },
        "departureDate": "2017-01-04",
        "returnDate": "2017-01-11",
        "amount": {
          "currency": "EUR",
          "price": 98.86
        },
        "possibleTravelTime": 7800000
      },
      "parent": {
        "code": "ES",
        "name": "Spain",
        "description": "Spain (ES)",
        "coordinates": {
          "latitude": 40,
          "longitude": -4
        },
        "parent": {
          "code": "EUR",
          "name": "Europe",
          "description": "Europe (EUR)",
          "coordinates": {
            "latitude": 51.179,
            "longitude": 11.25
          }
        }
      },
      "popularity": 2,
      "themes": [
        {
          "icon": "&#xe617;",
          "name": "Arts & Culture",
          "category": "ART"
        },
        {
          "icon": "&#xe618;",
          "name": "Architecture",
          "category": "ARC"
        },
        {
          "icon": "&#xe614;",
          "name": "Food & Drinks",
          "category": "CUL"
        }
      ]
    },
    {
      "code": "BDS",
      "name": "Brindisi",
      "description": "Brindisi (BDS)",
      "coordinates": {
        "latitude": 40.65111,
        "longitude": 17.95056
      },
      "children": [
        {
          "code": "BDS",
          "name": "Papola Casale",
          "description": "Brindisi - Papola Casale (BDS), Italy",
          "coordinates": {
            "latitude": 40.66056,
            "longitude": 17.94806
          }
        }
      ],
      "fare": {
        "origin": {
          "code": "AMS",
          "name": "Schiphol",
          "description": "Amsterdam - Schiphol (AMS), Netherlands",
          "coordinates": {
            "latitude": 52.30833,
            "longitude": 4.76806
          }
        },
        "departureDate": "2017-01-10",
        "returnDate": "2017-01-13",
        "amount": {
          "currency": "EUR",
          "price": 134.43
        },
        "possibleTravelTime": 11700000
      },
      "parent": {
        "code": "IT",
        "name": "Italy",
        "description": "Italy (IT)",
        "coordinates": {
          "latitude": 42.5,
          "longitude": 12.5
        },
        "parent": {
          "code": "EUR",
          "name": "Europe",
          "description": "Europe (EUR)",
          "coordinates": {
            "latitude": 51.179,
            "longitude": 11.25
          }
        }
      },
      "popularity": 6,
      "themes": [
        {
          "icon": "&#xe610;",
          "name": "History",
          "category": "HIS"
        },
        {
          "icon": "&#xe60e;",
          "name": "Nature",
          "category": "NAT"
        },
        {
          "icon": "&#xe605;",
          "name": "Beach",
          "category": "BEA"
        }
      ]
    },
    {
      "code": "BEG",
      "name": "Belgrade",
      "description": "Belgrade (BEG)",
      "coordinates": {
        "latitude": 44.81083,
        "longitude": 20.31694
      },
      "children": [
        {
          "code": "BEG",
          "name": "Nikola Tesla Airport",
          "description": "Belgrade - Nikola Tesla Airport (BEG), Serbia",
          "coordinates": {
            "latitude": 44.81917,
            "longitude": 20.31222
          }
        }
      ],
      "fare": {
        "origin": {
          "code": "AMS",
          "name": "Schiphol",
          "description": "Amsterdam - Schiphol (AMS), Netherlands",
          "coordinates": {
            "latitude": 52.30833,
            "longitude": 4.76806
          }
        },
        "departureDate": "2017-01-12",
        "returnDate": "2017-01-21",
        "amount": {
          "currency": "EUR",
          "price": 216.75
        },
        "possibleTravelTime": 8100000
      },
      "parent": {
        "code": "RS",
        "name": "Serbia",
        "description": "Serbia (RS)",
        "coordinates": {
          "latitude": 44,
          "longitude": 21
        },
        "parent": {
          "code": "EUR",
          "name": "Europe",
          "description": "Europe (EUR)",
          "coordinates": {
            "latitude": 51.179,
            "longitude": 11.25
          }
        }
      },
      "popularity": 6,
      "themes": [
        {
          "icon": "&#xe612;",
          "name": "Active & Outdoor",
          "category": "ACT"
        },
        {
          "icon": "&#xe614;",
          "name": "Food & Drinks",
          "category": "CUL"
        },
        {
          "icon": "&#xe60d;",
          "name": "Music & Nightlife",
          "category": "MUS"
        }
      ]
    },
    {
      "code": "BEL",
      "name": "Belem",
      "description": "Belem (BEL)",
      "coordinates": {
        "latitude": -1.415,
        "longitude": -48.48361
      },
      "children": [
        {
          "code": "BEL",
          "name": "Val De Cans",
          "description": "Belem - Val De Cans (BEL), Brazil",
          "coordinates": {
            "latitude": -1.45,
            "longitude": -48.48333
          }
        }
      ],
      "fare": {
        "origin": {
          "code": "AMS",
          "name": "Schiphol",
          "description": "Amsterdam - Schiphol (AMS), Netherlands",
          "coordinates": {
            "latitude": 52.30833,
            "longitude": 4.76806
          }
        },
        "departureDate": "2017-01-19",
        "returnDate": "2017-02-02",
        "amount": {
          "currency": "EUR",
          "price": 1047.35
        },
        "possibleTravelTime": 59700000
      },
      "parent": {
        "code": "BR",
        "name": "Brazil",
        "description": "Brazil (BR)",
        "coordinates": {
          "latitude": -10,
          "longitude": -55
        },
        "parent": {
          "code": "S-AMER",
          "name": "South America",
          "description": "South America (S-AMER)",
          "coordinates": {
            "latitude": -19.311,
            "longitude": -56.953
          }
        }
      },
      "popularity": 6,
      "themes": [
        {
          "icon": "&#xe612;",
          "name": "Active & Outdoor",
          "category": "ACT"
        },
        {
          "icon": "&#xe60e;",
          "name": "Nature",
          "category": "NAT"
        },
        {
          "icon": "&#xe607;",
          "name": "Shopping",
          "category": "SHO"
        }
      ]
    },
    {
      "code": "BER",
      "name": "Berlin",
      "description": "Berlin (BER)",
      "coordinates": {
        "latitude": 52.47694,
        "longitude": 13.40694
      },
      "children": [
        {
          "code": "TXL",
          "name": "Tegel Airport",
          "description": "Berlin - Tegel Airport (TXL), Germany",
          "coordinates": {
            "latitude": 52.56056,
            "longitude": 13.29556
          }
        }
      ],
      "fare": {
        "origin": {
          "code": "AMS",
          "name": "Schiphol",
          "description": "Amsterdam - Schiphol (AMS), Netherlands",
          "coordinates": {
            "latitude": 52.30833,
            "longitude": 4.76806
          }
        },
        "departureDate": "2017-01-01",
        "returnDate": "2017-01-09",
        "amount": {
          "currency": "EUR",
          "price": 99.35
        },
        "possibleTravelTime": 4800000
      },
      "parent": {
        "code": "DE",
        "name": "Germany",
        "description": "Germany (DE)",
        "coordinates": {
          "latitude": 51,
          "longitude": 9
        },
        "parent": {
          "code": "EUR",
          "name": "Europe",
          "description": "Europe (EUR)",
          "coordinates": {
            "latitude": 51.179,
            "longitude": 11.25
          }
        }
      },
      "popularity": 2,
      "themes": [
        {
          "icon": "&#xe617;",
          "name": "Arts & Culture",
          "category": "ART"
        },
        {
          "icon": "&#xe610;",
          "name": "History",
          "category": "HIS"
        },
        {
          "icon": "&#xe60d;",
          "name": "Music & Nightlife",
          "category": "MUS"
        },
        {
          "icon": "&#xe004;",
          "name": "World cities",
          "category": "WOC"
        }
      ]
    },
    {
      "code": "BES",
      "name": "Brest",
      "description": "Brest (BES)",
      "coordinates": {
        "latitude": 48.44917,
        "longitude": -4.4175
      },
      "children": [
        {
          "code": "BES",
          "name": "Brittany",
          "description": "Brest - Brittany (BES), France",
          "coordinates": {
            "latitude": 48.44722,
            "longitude": -4.42056
          }
        }
      ],
      "fare": {
        "origin": {
          "code": "AMS",
          "name": "Schiphol",
          "description": "Amsterdam - Schiphol (AMS), Netherlands",
          "coordinates": {
            "latitude": 52.30833,
            "longitude": 4.76806
          }
        },
        "departureDate": "2017-01-04",
        "returnDate": "2017-01-07",
        "amount": {
          "currency": "EUR",
          "price": 269.19
        },
        "possibleTravelTime": 9000000
      },
      "parent": {
        "code": "FR",
        "name": "France",
        "description": "France (FR)",
        "coordinates": {
          "latitude": 46,
          "longitude": 2
        },
        "parent": {
          "code": "EUR",
          "name": "Europe",
          "description": "Europe (EUR)",
          "coordinates": {
            "latitude": 51.179,
            "longitude": 11.25
          }
        }
      },
      "popularity": 6,
      "themes": [
        {
          "icon": "&#xe612;",
          "name": "Active & Outdoor",
          "category": "ACT"
        },
        {
          "icon": "&#xe610;",
          "name": "History",
          "category": "HIS"
        },
        {
          "icon": "&#xe613;",
          "name": "Family fun",
          "category": "FAM"
        }
      ]
    },
    {
      "code": "BEY",
      "name": "Beirut",
      "description": "Beirut (BEY)",
      "coordinates": {
        "latitude": 33.81583,
        "longitude": 35.48306
      },
      "children": [
        {
          "code": "BEY",
          "name": "Beirut Intl.",
          "description": "Beirut - Beirut Intl. (BEY), Lebanon",
          "coordinates": {
            "latitude": 33.81278,
            "longitude": 35.49028
          }
        }
      ],
      "fare": {
        "origin": {
          "code": "AMS",
          "name": "Schiphol",
          "description": "Amsterdam - Schiphol (AMS), Netherlands",
          "coordinates": {
            "latitude": 52.30833,
            "longitude": 4.76806
          }
        },
        "departureDate": "2017-01-12",
        "returnDate": "2017-01-23",
        "amount": {
          "currency": "EUR",
          "price": 310.67
        },
        "possibleTravelTime": 19500000
      },
      "parent": {
        "code": "LB",
        "name": "Lebanon",
        "description": "Lebanon (LB)",
        "coordinates": {
          "latitude": 33.5,
          "longitude": 35.5
        },
        "parent": {
          "code": "MIDDLE_EAST",
          "name": "Middle East",
          "description": "Middle East (MIDDLE_EAST)",
          "coordinates": {
            "latitude": 31.2,
            "longitude": 32.5
          }
        }
      },
      "popularity": 6,
      "themes": [
        {
          "icon": "&#xe617;",
          "name": "Arts & Culture",
          "category": "ART"
        },
        {
          "icon": "&#xe614;",
          "name": "Food & Drinks",
          "category": "CUL"
        },
        {
          "icon": "&#xe60d;",
          "name": "Music & Nightlife",
          "category": "MUS"
        }
      ]
    },
    {
      "code": "BFN",
      "name": "Bloemfontein",
      "description": "Bloemfontein (BFN)",
      "coordinates": {
        "latitude": -29.10028,
        "longitude": 26.29861
      },
      "children": [
        {
          "code": "BFN",
          "name": "Bloemfontein Intl.",
          "description": "Bloemfontein - Bloemfontein Intl. (BFN), South Africa",
          "coordinates": {
            "latitude": -29.1,
            "longitude": 26.3
          }
        }
      ],
      "fare": {
        "origin": {
          "code": "AMS",
          "name": "Schiphol",
          "description": "Amsterdam - Schiphol (AMS), Netherlands",
          "coordinates": {
            "latitude": 52.30833,
            "longitude": 4.76806
          }
        },
        "departureDate": "2017-01-17",
        "returnDate": "2017-01-23",
        "amount": {
          "currency": "EUR",
          "price": 869.69
        },
        "possibleTravelTime": 42300000
      },
      "parent": {
        "code": "ZA",
        "name": "South Africa",
        "description": "South Africa (ZA)",
        "coordinates": {
          "latitude": -29,
          "longitude": 24
        },
        "parent": {
          "code": "AFRICA",
          "name": "Africa",
          "description": "Africa (AFRICA)",
          "coordinates": {
            "latitude": -4.915,
            "longitude": 25.664
          }
        }
      },
      "popularity": 6,
      "themes": [
        {
          "icon": "&#xe611;",
          "name": "Golf",
          "category": "GOL"
        },
        {
          "icon": "&#xe610;",
          "name": "History",
          "category": "HIS"
        },
        {
          "icon": "&#xe60e;",
          "name": "Nature",
          "category": "NAT"
        }
      ]
    },
    {
      "code": "BFS",
      "name": "Belfast",
      "description": "Belfast (BFS)",
      "coordinates": {
        "latitude": 54.63139,
        "longitude": -6.14778
      },
      "children": [
        {
          "code": "BHD",
          "name": "George Best City Apt",
          "description": "Belfast - George Best City Apt (BHD), United Kingdom",
          "coordinates": {
            "latitude": 54.61667,
            "longitude": -5.88333
          }
        }
      ],
      "fare": {
        "origin": {
          "code": "AMS",
          "name": "Schiphol",
          "description": "Amsterdam - Schiphol (AMS), Netherlands",
          "coordinates": {
            "latitude": 52.30833,
            "longitude": 4.76806
          }
        },
        "departureDate": "2017-01-05",
        "returnDate": "2017-01-09",
        "amount": {
          "currency": "EUR",
          "price": 107.93
        },
        "possibleTravelTime": 6000000
      },
      "parent": {
        "code": "GB",
        "name": "United Kingdom",
        "description": "United Kingdom (GB)",
        "coordinates": {
          "latitude": 51.5,
          "longitude": -0.116667
        },
        "parent": {
          "code": "EUR",
          "name": "Europe",
          "description": "Europe (EUR)",
          "coordinates": {
            "latitude": 51.179,
            "longitude": 11.25
          }
        }
      },
      "popularity": 4,
      "themes": [
        {
          "icon": "&#xe610;",
          "name": "History",
          "category": "HIS"
        },
        {
          "icon": "&#xe60e;",
          "name": "Nature",
          "category": "NAT"
        },
        {
          "icon": "&#xe613;",
          "name": "Family fun",
          "category": "FAM"
        },
        {
          "icon": "&#xe626;",
          "name": "Surfing",
          "category": "SUR"
        }
      ]
    },
    {
      "code": "BGO",
      "name": "Bergen",
      "description": "Bergen (BGO)",
      "coordinates": {
        "latitude": 60.29806,
        "longitude": 5.21389
      },
      "children": [
        {
          "code": "BGO",
          "name": "Flesland",
          "description": "Bergen - Flesland (BGO), Norway",
          "coordinates": {
            "latitude": 60.29361,
            "longitude": 5.21944
          }
        }
      ],
      "fare": {
        "origin": {
          "code": "AMS",
          "name": "Schiphol",
          "description": "Amsterdam - Schiphol (AMS), Netherlands",
          "coordinates": {
            "latitude": 52.30833,
            "longitude": 4.76806
          }
        },
        "departureDate": "2017-01-21",
        "returnDate": "2017-01-24",
        "amount": {
          "currency": "EUR",
          "price": 168.68
        },
        "possibleTravelTime": 5700000
      },
      "parent": {
        "code": "NO",
        "name": "Norway",
        "description": "Norway (NO)",
        "coordinates": {
          "latitude": 62,
          "longitude": 10
        },
        "parent": {
          "code": "EUR",
          "name": "Europe",
          "description": "Europe (EUR)",
          "coordinates": {
            "latitude": 51.179,
            "longitude": 11.25
          }
        }
      },
      "popularity": 5,
      "themes": [
        {
          "icon": "&#xe612;",
          "name": "Active & Outdoor",
          "category": "ACT"
        },
        {
          "icon": "&#xe617;",
          "name": "Arts & Culture",
          "category": "ART"
        },
        {
          "icon": "&#xe605;",
          "name": "Beach",
          "category": "BEA"
        }
      ]
    },
    {
      "code": "BGR",
      "name": "Bangor",
      "description": "Bangor (BGR)",
      "coordinates": {
        "latitude": 44.94833,
        "longitude": -68.68611
      },
      "children": [
        {
          "code": "BGR",
          "name": "Bangor Intl",
          "description": "Bangor - Bangor Intl (BGR), USA",
          "coordinates": {
            "latitude": 44.80778,
            "longitude": -68.82778
          }
        }
      ],
      "fare": {
        "origin": {
          "code": "AMS",
          "name": "Schiphol",
          "description": "Amsterdam - Schiphol (AMS), Netherlands",
          "coordinates": {
            "latitude": 52.30833,
            "longitude": 4.76806
          }
        },
        "departureDate": "2016-12-29",
        "returnDate": "2017-01-01",
        "amount": {
          "currency": "EUR",
          "price": 925.75
        },
        "possibleTravelTime": 35280000
      },
      "parent": {
        "code": "US",
        "name": "USA",
        "description": "USA (US)",
        "coordinates": {
          "latitude": 36,
          "longitude": -100
        },
        "parent": {
          "code": "N_AMER",
          "name": "North America",
          "description": "North America (N_AMER)",
          "coordinates": {
            "latitude": 46.316,
            "longitude": -105.46
          }
        }
      },
      "popularity": 6,
      "themes": [
        {
          "icon": "&#xe612;",
          "name": "Active & Outdoor",
          "category": "ACT"
        },
        {
          "icon": "&#xe610;",
          "name": "History",
          "category": "HIS"
        },
        {
          "icon": "&#xe60e;",
          "name": "Nature",
          "category": "NAT"
        }
      ]
    },
    {
      "code": "BHM",
      "name": "Birmingham",
      "description": "Birmingham (BHM)",
      "coordinates": {
        "latitude": 33.56361,
        "longitude": -86.75139
      },
      "children": [
        {
          "code": "BHM",
          "name": "Birmingham",
          "description": "Birmingham - Birmingham (BHM), USA",
          "coordinates": {
            "latitude": 33.56306,
            "longitude": -86.75556
          }
        }
      ],
      "fare": {
        "origin": {
          "code": "AMS",
          "name": "Schiphol",
          "description": "Amsterdam - Schiphol (AMS), Netherlands",
          "coordinates": {
            "latitude": 52.30833,
            "longitude": 4.76806
          }
        },
        "departureDate": "2016-12-20",
        "returnDate": "2017-01-09",
        "amount": {
          "currency": "EUR",
          "price": 799.86
        },
        "possibleTravelTime": 37380000
      },
      "parent": {
        "code": "US",
        "name": "USA",
        "description": "USA (US)",
        "coordinates": {
          "latitude": 36,
          "longitude": -100
        },
        "parent": {
          "code": "N_AMER",
          "name": "North America",
          "description": "North America (N_AMER)",
          "coordinates": {
            "latitude": 46.316,
            "longitude": -105.46
          }
        }
      },
      "popularity": 6,
      "themes": [
        {
          "icon": "&#xe617;",
          "name": "Arts & Culture",
          "category": "ART"
        },
        {
          "icon": "&#xe610;",
          "name": "History",
          "category": "HIS"
        },
        {
          "icon": "&#xe60d;",
          "name": "Music & Nightlife",
          "category": "MUS"
        }
      ]
    },
    {
      "code": "BHX",
      "name": "Birmingham",
      "description": "Birmingham (BHX)",
      "coordinates": {
        "latitude": 52.44833,
        "longitude": -1.7475
      },
      "children": [
        {
          "code": "BHX",
          "name": "Birmingham Intl.",
          "description": "Birmingham - Birmingham Intl. (BHX), United Kingdom",
          "coordinates": {
            "latitude": 52.45306,
            "longitude": -1.74639
          }
        }
      ],
      "fare": {
        "origin": {
          "code": "AMS",
          "name": "Schiphol",
          "description": "Amsterdam - Schiphol (AMS), Netherlands",
          "coordinates": {
            "latitude": 52.30833,
            "longitude": 4.76806
          }
        },
        "departureDate": "2016-12-26",
        "returnDate": "2017-01-01",
        "amount": {
          "currency": "EUR",
          "price": 98.44
        },
        "possibleTravelTime": 4200000
      },
      "parent": {
        "code": "GB",
        "name": "United Kingdom",
        "description": "United Kingdom (GB)",
        "coordinates": {
          "latitude": 51.5,
          "longitude": -0.116667
        },
        "parent": {
          "code": "EUR",
          "name": "Europe",
          "description": "Europe (EUR)",
          "coordinates": {
            "latitude": 51.179,
            "longitude": 11.25
          }
        }
      },
      "popularity": 4,
      "themes": [
        {
          "icon": "&#xe610;",
          "name": "History",
          "category": "HIS"
        },
        {
          "icon": "&#xe60d;",
          "name": "Music & Nightlife",
          "category": "MUS"
        },
        {
          "icon": "&#xe607;",
          "name": "Shopping",
          "category": "SHO"
        }
      ]
    },
    {
      "code": "BHZ",
      "name": "Belo Horizonte",
      "description": "Belo Horizonte (BHZ)",
      "coordinates": {
        "latitude": -19.74972,
        "longitude": -43.75083
      },
      "children": [
        {
          "code": "CNF",
          "name": "Tancredo Neves",
          "description": "Belo Horizonte - Tancredo Neves (CNF), Brazil",
          "coordinates": {
            "latitude": -19.63333,
            "longitude": -43.96861
          }
        }
      ],
      "fare": {
        "origin": {
          "code": "AMS",
          "name": "Schiphol",
          "description": "Amsterdam - Schiphol (AMS), Netherlands",
          "coordinates": {
            "latitude": 52.30833,
            "longitude": 4.76806
          }
        },
        "departureDate": "2017-01-20",
        "returnDate": "2017-02-02",
        "amount": {
          "currency": "EUR",
          "price": 869.39
        },
        "possibleTravelTime": 46800000
      },
      "parent": {
        "code": "BR",
        "name": "Brazil",
        "description": "Brazil (BR)",
        "coordinates": {
          "latitude": -10,
          "longitude": -55
        },
        "parent": {
          "code": "S-AMER",
          "name": "South America",
          "description": "South America (S-AMER)",
          "coordinates": {
            "latitude": -19.311,
            "longitude": -56.953
          }
        }
      },
      "popularity": 6,
      "themes": [
        {
          "icon": "&#xe617;",
          "name": "Arts & Culture",
          "category": "ART"
        },
        {
          "icon": "&#xe60e;",
          "name": "Nature",
          "category": "NAT"
        },
        {
          "icon": "&#xe607;",
          "name": "Shopping",
          "category": "SHO"
        }
      ]
    },
    {
      "code": "BIA",
      "name": "Bastia",
      "description": "Bastia (BIA)",
      "coordinates": {
        "latitude": 42.54778,
        "longitude": 9.48222
      },
      "children": [
        {
          "code": "BIA",
          "name": "Poretta",
          "description": "Bastia - Poretta (BIA), France",
          "coordinates": {
            "latitude": 42.54917,
            "longitude": 9.48611
          }
        }
      ],
      "fare": {
        "origin": {
          "code": "AMS",
          "name": "Schiphol",
          "description": "Amsterdam - Schiphol (AMS), Netherlands",
          "coordinates": {
            "latitude": 52.30833,
            "longitude": 4.76806
          }
        },
        "departureDate": "2017-01-07",
        "returnDate": "2017-01-16",
        "amount": {
          "currency": "EUR",
          "price": 279.78
        },
        "possibleTravelTime": 9300000
      },
      "parent": {
        "code": "FR",
        "name": "France",
        "description": "France (FR)",
        "coordinates": {
          "latitude": 46,
          "longitude": 2
        },
        "parent": {
          "code": "EUR",
          "name": "Europe",
          "description": "Europe (EUR)",
          "coordinates": {
            "latitude": 51.179,
            "longitude": 11.25
          }
        }
      },
      "popularity": 6,
      "themes": [
        {
          "icon": "&#xe610;",
          "name": "History",
          "category": "HIS"
        },
        {
          "icon": "&#xe60e;",
          "name": "Nature",
          "category": "NAT"
        },
        {
          "icon": "&#xe605;",
          "name": "Beach",
          "category": "BEA"
        }
      ]
    },
    {
      "code": "BIL",
      "name": "Billings",
      "description": "Billings (BIL)",
      "coordinates": {
        "latitude": 45.80222,
        "longitude": -108.53528
      },
      "children": [
        {
          "code": "BIL",
          "name": "Logan International",
          "description": "Billings - Logan International (BIL), USA",
          "coordinates": {
            "latitude": 45.80694,
            "longitude": -108.54278
          }
        }
      ],
      "fare": {
        "origin": {
          "code": "AMS",
          "name": "Schiphol",
          "description": "Amsterdam - Schiphol (AMS), Netherlands",
          "coordinates": {
            "latitude": 52.30833,
            "longitude": 4.76806
          }
        },
        "departureDate": "2017-01-09",
        "returnDate": "2017-01-16",
        "amount": {
          "currency": "EUR",
          "price": 914.86
        },
        "possibleTravelTime": 39420000
      },
      "parent": {
        "code": "US",
        "name": "USA",
        "description": "USA (US)",
        "coordinates": {
          "latitude": 36,
          "longitude": -100
        },
        "parent": {
          "code": "N_AMER",
          "name": "North America",
          "description": "North America (N_AMER)",
          "coordinates": {
            "latitude": 46.316,
            "longitude": -105.46
          }
        }
      },
      "popularity": 6,
      "themes": [
        {
          "icon": "&#xe610;",
          "name": "History",
          "category": "HIS"
        },
        {
          "icon": "&#xe60e;",
          "name": "Nature",
          "category": "NAT"
        },
        {
          "icon": "&#xe613;",
          "name": "Family fun",
          "category": "FAM"
        }
      ]
    },
    {
      "code": "BIO",
      "name": "Bilbao",
      "description": "Bilbao (BIO)",
      "coordinates": {
        "latitude": 43.29833,
        "longitude": -2.92778
      },
      "children": [
        {
          "code": "BIO",
          "name": "Bilbao",
          "description": "Bilbao - Bilbao (BIO), Spain",
          "coordinates": {
            "latitude": 43.30278,
            "longitude": -2.92167
          }
        }
      ],
      "fare": {
        "origin": {
          "code": "AMS",
          "name": "Schiphol",
          "description": "Amsterdam - Schiphol (AMS), Netherlands",
          "coordinates": {
            "latitude": 52.30833,
            "longitude": 4.76806
          }
        },
        "departureDate": "2017-01-10",
        "returnDate": "2017-01-25",
        "amount": {
          "currency": "EUR",
          "price": 104.91
        },
        "possibleTravelTime": 7500000
      },
      "parent": {
        "code": "ES",
        "name": "Spain",
        "description": "Spain (ES)",
        "coordinates": {
          "latitude": 40,
          "longitude": -4
        },
        "parent": {
          "code": "EUR",
          "name": "Europe",
          "description": "Europe (EUR)",
          "coordinates": {
            "latitude": 51.179,
            "longitude": 11.25
          }
        }
      },
      "popularity": 4,
      "themes": [
        {
          "icon": "&#xe617;",
          "name": "Arts & Culture",
          "category": "ART"
        },
        {
          "icon": "&#xe614;",
          "name": "Food & Drinks",
          "category": "CUL"
        },
        {
          "icon": "&#xe610;",
          "name": "History",
          "category": "HIS"
        },